{"McDonald": {"businesses": [{"id": "mcdonalds-detroit-27", "name": "McDonald's", "image_url": "https://s3-media1.fl.yelpcdn.com/bphoto/4OcbF6mW_IMlRoBj7BFIiw/o.jpg", "is_closed": false, "url": "https://www.yelp.com/biz/mcdonalds-detroit-27?adjust_creative=HLFMMIEGVil6OfM8RfgS5Q&utm_campaign=yelp_api_v3&utm_medium=api_v3_business_search&utm_source=HLFMMIEGVil6OfM8RfgS5Q", "review_count": 8, "categories": [{"alias": "hotdogs", "title": "Fast Food"}, {"alias": "burgers", "title": "Burgers"}], "rating": 1.0, "coordinates": {"latitude": 42.40166, "longitude": -83.22163}, "transactions": [], "price": "$", "location": {"address1": "18403 Grand River Ave", "address2": "", "address3": "", "city": "Detroit", "zip_code": "48223", "country": "US", "state": "MI", "display_address": ["18403 Grand River Ave", "Detroit, MI 48223"]}, "phone": "+13138379040", "display_phone": "(313) 837-9040", "distance": 11585.288467616}, {"id": "mcdonalds-detroit-37", "name": "McDonald's", "image_url": "https://s3-media4.fl.yelpcdn.com/bphoto/mYUigSV87TWOn3OeD7Pz7w/o.jpg", "is_closed": false, "url": "https://www.yelp.com/biz/mcdonalds-detroit-37?adjust_creative=HLFMMIEGVil6OfM8RfgS5Q&utm_campaign=yelp_api_v3&utm_medium=api_v3_business_search&utm_source=HLFMMIEGVil6OfM8RfgS5Q", "review_count": 24, "categories": [{"alias": "burgers", "title": "Burgers"}, {"alias": "hotdogs", "title": "Fast Food"}], "rating": 1.5, "coordinates": {"latitude": 42.4094051, "longitude": -82.9145897}, "transactions": [], "price": "$", "location": {"address1": "18201 Mack Ave", "address2": "", "address3": "", "city": "Detroit", "zip_code": "48224", "country": "US", "state": "MI", "display_address": ["18201 Mack Ave", "Detroit, MI 48224"]}, "phone": "+13134991121", "display_phone": "(313) 499-1121", "distance": 15399.88228578}, {"id": "mcdonalds-windsor-21", "name": "McDonald's", "image_url": "", "is_closed": false, "url": "https://www.yelp.com/biz/mcdonalds-windsor-21?adjust_creative=HLFMMIEGVil6OfM8RfgS5Q&utm_campaign=yelp_api_v3&utm_medium=api_v3_business_search&utm_source=HLFMMIEGVil6OfM8RfgS5Q", "review_count": 3, "categories": [{"alias": "hotdogs", "title": "Fast Food"}, {"alias": "burgers", "title": "Burgers"}], "rating": 2.5, "coordinates": {"latitude": 42.30382, "longitude": -82.98925}, "transactions": [], "price": "$", "location": {"address1": "2780 Tecumseh Road E", "address2": "", "address3": "", "city": "Windsor", "zip_code": "N8W 1G3", "country": "CA", "state": "ON", "display_address": ["2780 Tecumseh Road E", "Windsor, ON N8W 1G3", "Canada"]}, "phone": "+15199453634", "display_phone": "+1 519-945-3634", "distance": 10604.80869426}, {"id": "mcdonalds-royal-oak-2", "name": "McDonald's", "image_url": "https://s3-media4.fl.yelpcdn.com/bphoto/Wto9ODUghJGQ1Pt5MptSRA/o.jpg", "is_closed": false, "url": "https://www.yelp.com/biz/mcdonalds-royal-oak-2?adjust_creative=HLFMMIEGVil6OfM8RfgS5Q&utm_campaign=yelp_api_v3&utm_medium=api_v3_business_search&utm_source=HLFMMIEGVil6OfM8RfgS5Q", "review_count": 17, "categories": [{"alias": "hotdogs", "title": "Fast Food"}, {"alias": "burgers", "title": "Burgers"}], "rating": 2.0, "coordinates": {"latitude": 42.53201, "longitude": -83.18037}, "transactions": [], "price": "$", "location": {"address1": "2829 W 14 Mile Rd", "address2": null, "address3": null, "city": "Royal Oak", "zip_code": "48073", "country": "US", "state": "MI", "display_address": ["2829 W 14 Mile Rd", "Royal Oak, MI 48073"]}, "phone": "+12485496262", "display_phone": "(248) 549-6262", "distance": 20250.15784864}, {"id": "mcdonalds-wyandotte", "name": "McDonald's", "image_url": "https://s3-media4.fl.yelpcdn.com/bphoto/2uf8U2I28RqK8EfC0KHbCA/o.jpg", "is_closed": false, "url": "https://www.yelp.com/biz/mcdonalds-wyandotte?adjust_creative=HLFMMIEGVil6OfM8RfgS5Q&utm_campaign=yelp_api_v3&utm_medium=api_v3_business_search&utm_source=HLFMMIEGVil6OfM8RfgS5Q", "review_count": 3, "categories": [{"alias": "hotdogs", "title": "Fast Food"}, {"alias": "burgers", "title": "Burgers"}], "rating": 3.5, "coordinates": {"latitude": 42.1983528137207, "longitude": -83.1496810913086}, "transactions": [], "price": "$$", "location": {"address1": "3421 Biddle St", "address2": "", "address3": "", "city": "Wyandotte", "zip_code": "48192", "country": "US", "state": "MI", "display_address": ["3421 Biddle St", "Wyandotte, MI 48192"]}, "phone": "+17342811105", "display_phone": "(734) 281-1105", "distance": 18866.80619946}, {"id": "mcdonalds-troy-15", "name": "McDonald's", "image_url": "https://s3-media2.fl.yelpcdn.com/bphoto/kxhIuPA9EJYXpZGXe2e2-Q/o.jpg", "is_closed": false, "url": "https://www.yelp.com/biz/mcdonalds-troy-15?adjust_creative=HLFMMIEGVil6OfM8RfgS5Q&utm_campaign=yelp_api_v3&utm_medium=api_v3_business_search&utm_source=HLFMMIEGVil6OfM8RfgS5Q", "review_count": 20, "categories": [{"alias": "hotdogs", "title": "Fast Food"}, {"alias": "burgers", "title": "Burgers"}], "rating": 2.0, "coordinates": {"latitude": 42.5483590364456, "longitude": -83.1479765474796}, "transactions": [], "price": "$", "location": {"address1": "70 W Maple Rd", "address2": "", "address3": "", "city": "Troy", "zip_code": "48083", "country": "US", "state": "MI", "display_address": ["70 W Maple Rd", "Troy, MI 48083"]}, "phone": "+12485565109", "display_phone": "(248) 556-5109", "distance": 21196.65898284}, {"id": "mcdonalds-windsor-20", "name": "McDonald's", "image_url": "", "is_closed": false, "url": "https://www.yelp.com/biz/mcdonalds-windsor-20?adjust_creative=HLFMMIEGVil6OfM8RfgS5Q&utm_campaign=yelp_api_v3&utm_medium=api_v3_business_search&utm_source=HLFMMIEGVil6OfM8RfgS5Q", "review_count": 3, "categories": [{"alias": "hotdogs", "title": "Fast Food"}, {"alias": "burgers", "title": "Burgers"}], "rating": 2.5, "coordinates": {"latitude": 42.25635, "longitude": -82.96586}, "transactions": [], "price": "$$", "location": {"address1": "4395 Walker Road", "address2": "", "address3": "", "city": "Windsor", "zip_code": "N8W 3T6", "country": "CA", "state": "ON", "display_address": ["4395 Walker Road", "Windsor, ON N8W 3T6", "Canada"]}, "phone": "+15199721117", "display_phone": "+1 519-972-1117", "distance": 15663.076968059999}, {"id": "mcdonalds-windsor-15", "name": "McDonald's", "image_url": "", "is_closed": false, "url": "https://www.yelp.com/biz/mcdonalds-windsor-15?adjust_creative=HLFMMIEGVil6OfM8RfgS5Q&utm_campaign=yelp_api_v3&utm_medium=api_v3_business_search&utm_source=HLFMMIEGVil6OfM8RfgS5Q", "review_count": 1, "categories": [{"alias": "hotdogs", "title": "Fast Food"}, {"alias": "burgers", "title": "Burgers"}], "rating": 1.0, "coordinates": {"latitude": 42.26633, "longitude": -83.00892}, "transactions": [], "location": {"address1": "3354 Dougall Avenue", "address2": "", "address3": "", "city": "Windsor", "zip_code": "N9E 1S6", "country": "CA", "state": "ON", "display_address": ["3354 Dougall Avenue", "Windsor, ON N9E 1S6", "Canada"]}, "phone": "+15199660454", "display_phone": "+1 519-966-0454", "distance": 12615.191394239999}, {"id": "mcdonalds-lincoln-park-4", "name": "McDonald's", "image_url": "", "is_closed": false, "url": "https://www.yelp.com/biz/mcdonalds-lincoln-park-4?adjust_creative=HLFMMIEGVil6OfM8RfgS5Q&utm_campaign=yelp_api_v3&utm_medium=api_v3_business_search&utm_source=HLFMMIEGVil6OfM8RfgS5Q", "review_count": 5, "categories": [{"alias": "hotdogs", "title": "Fast Food"}, {"alias": "burgers", "title": "Burgers"}], "rating": 1.0, "coordinates": {"latitude": 42.2536087, "longitude": -83.1942902}, "transactions": [], "price": "$", "location": {"address1": "2106 Dix Hwy", "address2": "", "address3": "", "city": "Lincoln Park", "zip_code": "48146", "country": "US", "state": "MI", "display_address": ["2106 Dix Hwy", "Lincoln Park, MI 48146"]}, "phone": "+13133834800", "display_phone": "(313) 383-4800", "distance": 14797.025935789998}, {"id": "mcdonalds-taylor", "name": "McDonald's", "image_url": "https://s3-media4.fl.yelpcdn.com/bphoto/YUGIJlhiUTIW-noPdCGISg/o.jpg", "is_closed": false, "url": "https://www.yelp.com/biz/mcdonalds-taylor?adjust_creative=HLFMMIEGVil6OfM8RfgS5Q&utm_campaign=yelp_api_v3&utm_medium=api_v3_business_search&utm_source=HLFMMIEGVil6OfM8RfgS5Q", "review_count": 10, "categories": [{"alias": "hotdogs", "title": "Fast Food"}, {"alias": "burgers", "title": "Burgers"}], "rating": 2.0, "coordinates": {"latitude": 42.2321090698242, "longitude": -83.2702560424805}, "transactions": [], "price": "$", "location": {"address1": "10236 Telegraph Rd", "address2": "", "address3": "", "city": "Taylor", "zip_code": "48180", "country": "US", "state": "MI", "display_address": ["10236 Telegraph Rd", "Taylor, MI 48180"]}, "phone": "+13132925202", "display_phone": "(313) 292-5202", "distance": 20666.8063186}, {"id": "mcdonalds-clinton-township-7", "name": "McDonald's", "image_url": "https://s3-media1.fl.yelpcdn.com/bphoto/z3nWeXp6sJPjHsYRXXP2ww/o.jpg", "is_closed": true, "url": "https://www.yelp.com/biz/mcdonalds-clinton-township-7?adjust_creative=HLFMMIEGVil6OfM8RfgS5Q&utm_campaign=yelp_api_v3&utm_medium=api_v3_business_search&utm_source=HLFMMIEGVil6OfM8RfgS5Q", "review_count": 7, "categories": [{"alias": "hotdogs", "title": "Fast Food"}, {"alias": "burgers", "title": "Burgers"}], "rating": 1.5, "coordinates": {"latitude": 42.57487, "longitude": -82.8896}, "transactions": [], "price": "$", "location": {"address1": "37701 S Gratiot Ave", "address2": "", "address3": "", "city": "Clinton Township", "zip_code": "48036", "country": "US", "state": "MI", "display_address": ["37701 S Gratiot Ave", "Clinton Township, MI 48036"]}, "phone": "+15864688822", "display_phone": "(586) 468-8822", "distance": 28824.61676154}, {"id": "a-a-a-mcdonald-tree-service-royal-oak", "name": "A A A McDonald Tree Service", "image_url": "", "is_closed": false, "url": "https://www.yelp.com/biz/a-a-a-mcdonald-tree-service-royal-oak?adjust_creative=HLFMMIEGVil6OfM8RfgS5Q&utm_campaign=yelp_api_v3&utm_medium=api_v3_business_search&utm_source=HLFMMIEGVil6OfM8RfgS5Q", "review_count": 10, "categories": [{"alias": "treeservices", "title": "Tree Services"}], "rating": 4.0, "coordinates": {"latitude": 42.488899230957, "longitude": -83.145393371582}, "transactions": [], "location": {"address1": "", "address2": "", "address3": "", "city": "Royal Oak", "zip_code": "48068", "country": "US", "state": "MI", "display_address": ["Royal Oak, MI 48068"]}, "phone": "+12485469336", "display_phone": "(248) 546-9336", "distance": 14809.877320359998}, {"id": "aaa-mcdonald-tree-service-grosse-pointe-park", "name": "AAA-McDonald Tree Service", "image_url": "", "is_closed": false, "url": "https://www.yelp.com/biz/aaa-mcdonald-tree-service-grosse-pointe-park?adjust_creative=HLFMMIEGVil6OfM8RfgS5Q&utm_campaign=yelp_api_v3&utm_medium=api_v3_business_search&utm_source=HLFMMIEGVil6OfM8RfgS5Q", "review_count": 3, "categories": [{"alias": "treeservices", "title": "Tree Services"}], "rating": 5.0, "coordinates": {"latitude": 42.391563, "longitude": -82.922394}, "transactions": [], "location": {"address1": "1346 Grayton St", "address2": "", "address3": "", "city": "Grosse Pointe Park", "zip_code": "48230", "country": "US", "state": "MI", "display_address": ["1346 Grayton St", "Grosse Pointe Park, MI 48230"]}, "phone": "+12483765706", "display_phone": "(248) 376-5706", "distance": 14221.65550366}, {"id": "debbie-mcdonald-cpa-northville", "name": "Debbie McDonald, CPA", "image_url": "", "is_closed": false, "url": "https://www.yelp.com/biz/debbie-mcdonald-cpa-northville?adjust_creative=HLFMMIEGVil6OfM8RfgS5Q&utm_campaign=yelp_api_v3&utm_medium=api_v3_business_search&utm_source=HLFMMIEGVil6OfM8RfgS5Q", "review_count": 1, "categories": [{"alias": "accountants", "title": "Accountants"}], "rating": 5.0, "coordinates": {"latitude": 42.43107, "longitude": -83.48246}, "transactions": [], "location": {"address1": "", "address2": "", "address3": "", "city": "Northville", "zip_code": "48167", "country": "US", "state": "MI", "display_address": ["Northville, MI 48167"]}, "phone": "+12488809025", "display_phone": "(248) 880-9025", "distance": 33107.987825339995}, {"id": "mcdonalds-detroit-38", "name": "McDonald's", "image_url": "https://s3-media4.fl.yelpcdn.com/bphoto/YcsFg3C7iqeYHodVp-xk5g/o.jpg", "is_closed": false, "url": "https://www.yelp.com/biz/mcdonalds-detroit-38?adjust_creative=HLFMMIEGVil6OfM8RfgS5Q&utm_campaign=yelp_api_v3&utm_medium=api_v3_business_search&utm_source=HLFMMIEGVil6OfM8RfgS5Q", "review_count": 23, "categories": [{"alias": "hotdogs", "title": "Fast Food"}, {"alias": "burgers", "title": "Burgers"}], "rating": 2.5, "coordinates": {"latitude": 42.2092055809587, "longitude": -83.3573415247443}, "transactions": [], "price": "$", "location": {"address1": "Gate D12 & 14", "address2": null, "address3": "North Terminal", "city": "Detroit", "zip_code": "48242", "country": "US", "state": "MI", "display_address": ["Gate D12 & 14", "North Terminal", "Detroit, MI 48242"]}, "phone": "+17349415402", "display_phone": "(734) 941-5402", "distance": 27755.397014979997}, {"id": "mcdonalds-detroit-22", "name": "McDonald's", "image_url": "", "is_closed": false, "url": "https://www.yelp.com/biz/mcdonalds-detroit-22?adjust_creative=HLFMMIEGVil6OfM8RfgS5Q&utm_campaign=yelp_api_v3&utm_medium=api_v3_business_search&utm_source=HLFMMIEGVil6OfM8RfgS5Q", "review_count": 4, "categories": [{"alias": "burgers", "title": "Burgers"}, {"alias": "hotdogs", "title": "Fast Food"}], "rating": 1.5, "coordinates": {"latitude": 42.4152641296387, "longitude": -82.9377822875977}, "transactions": [], "price": "$", "location": {"address1": "16950 Harper Ave", "address2": "", "address3": "", "city": "Detroit", "zip_code": "48224", "country": "US", "state": "MI", "display_address": ["16950 Harper Ave", "Detroit, MI 48224"]}, "phone": "+13138867575", "display_phone": "(313) 886-7575", "distance": 13885.826479159998}, {"id": "mcdonalds-saint-clair-shores", "name": "McDonald's", "image_url": "https://s3-media3.fl.yelpcdn.com/bphoto/7CrWEJ5HbzoiDJ1yu6qiLg/o.jpg", "is_closed": false, "url": "https://www.yelp.com/biz/mcdonalds-saint-clair-shores?adjust_creative=HLFMMIEGVil6OfM8RfgS5Q&utm_campaign=yelp_api_v3&utm_medium=api_v3_business_search&utm_source=HLFMMIEGVil6OfM8RfgS5Q", "review_count": 34, "categories": [{"alias": "burgers", "title": "Burgers"}, {"alias": "hotdogs", "title": "Fast Food"}], "rating": 1.5, "coordinates": {"latitude": 42.4666866, "longitude": -82.8960057}, "transactions": [], "price": "$", "location": {"address1": "22333 E 9 Mile Rd", "address2": "", "address3": "", "city": "Saint Clair Shores", "zip_code": "48080", "country": "US", "state": "MI", "display_address": ["22333 E 9 Mile Rd", "Saint Clair Shores, MI 48080"]}, "phone": "+15864456196", "display_phone": "(586) 445-6196", "distance": 19763.63183588}, {"id": "mcdonalds-farmington-hills-2", "name": "McDonald's", "image_url": "https://s3-media4.fl.yelpcdn.com/bphoto/BcvcIJMW-paYuIY0FlBkrw/o.jpg", "is_closed": false, "url": "https://www.yelp.com/biz/mcdonalds-farmington-hills-2?adjust_creative=HLFMMIEGVil6OfM8RfgS5Q&utm_campaign=yelp_api_v3&utm_medium=api_v3_business_search&utm_source=HLFMMIEGVil6OfM8RfgS5Q", "review_count": 33, "categories": [{"alias": "hotdogs", "title": "Fast Food"}, {"alias": "burgers", "title": "Burgers"}], "rating": 1.5, "coordinates": {"latitude": 42.5272484, "longitude": -83.3605804}, "transactions": [], "price": "$", "location": {"address1": "31325 Orchard Lake Rd", "address2": "", "address3": "", "city": "Farmington Hills", "zip_code": "48334", "country": "US", "state": "MI", "display_address": ["31325 Orchard Lake Rd", "Farmington Hills, MI 48334"]}, "phone": "+12488559113", "display_phone": "(248) 855-9113", "distance": 28736.73553216}, {"id": "shake-shack-detroit", "name": "Shake Shack", "image_url": "https://s3-media1.fl.yelpcdn.com/bphoto/zW1TJfCdKvztwEVEOtUs8g/o.jpg", "is_closed": false, "url": "https://www.yelp.com/biz/shake-shack-detroit?adjust_creative=HLFMMIEGVil6OfM8RfgS5Q&utm_campaign=yelp_api_v3&utm_medium=api_v3_business_search&utm_source=HLFMMIEGVil6OfM8RfgS5Q", "review_count": 206, "categories": [{"alias": "burgers", "title": "Burgers"}, {"alias": "diners", "title": "Diners"}], "rating": 3.5, "coordinates": {"latitude": 42.33113, "longitude": -83.045924}, "transactions": [], "price": "$$", "location": {"address1": "660 Woodward Ave", "address2": "", "address3": null, "city": "Detroit", "zip_code": "48226", "country": "US", "state": "MI", "display_address": ["660 Woodward Ave", "Detroit, MI 48226"]}, "phone": "+13136720501", "display_phone": "(313) 672-0501", "distance": 5080.548298628}, {"id": "mcdonalds-oak-park-6", "name": "McDonald's", "image_url": "https://s3-media4.fl.yelpcdn.com/bphoto/0TK2FZpfk0D_04SXLezIfg/o.jpg", "is_closed": false, "url": "https://www.yelp.com/biz/mcdonalds-oak-park-6?adjust_creative=HLFMMIEGVil6OfM8RfgS5Q&utm_campaign=yelp_api_v3&utm_medium=api_v3_business_search&utm_source=HLFMMIEGVil6OfM8RfgS5Q", "review_count": 14, "categories": [{"alias": "hotdogs", "title": "Fast Food"}, {"alias": "burgers", "title": "Burgers"}], "rating": 1.5, "coordinates": {"latitude": 42.4832897477182, "longitude": -83.2017551691834}, "transactions": [], "price": "$", "location": {"address1": "21000 Greenfield Rd", "address2": "", "address3": "", "city": "Oak Park", "zip_code": "48237", "country": "US", "state": "MI", "display_address": ["21000 Greenfield Rd", "Oak Park, MI 48237"]}, "phone": "+12489685149", "display_phone": "(248) 968-5149", "distance": 16227.343758859997}, {"id": "mcdonalds-farmington-hills-3", "name": "McDonald's", "image_url": "https://s3-media2.fl.yelpcdn.com/bphoto/yk3Ce-fXNvnOQ1bQMUYgrw/o.jpg", "is_closed": false, "url": "https://www.yelp.com/biz/mcdonalds-farmington-hills-3?adjust_creative=HLFMMIEGVil6OfM8RfgS5Q&utm_campaign=yelp_api_v3&utm_medium=api_v3_business_search&utm_source=HLFMMIEGVil6OfM8RfgS5Q", "review_count": 31, "categories": [{"alias": "hotdogs", "title": "Fast Food"}, {"alias": "burgers", "title": "Burgers"}], "rating": 1.0, "coordinates": {"latitude": 42.46862, "longitude": -83.35621}, "transactions": [], "price": "$", "location": {"address1": "24020 Orchard Lake Rd", "address2": null, "address3": null, "city": "Farmington Hills", "zip_code": "48336", "country": "US", "state": "MI", "display_address": ["24020 Orchard Lake Rd", "Farmington Hills, MI 48336"]}, "phone": "+12484772011", "display_phone": "(248) 477-2011", "distance": 24792.49746788}, {"id": "mcdonalds-melvindale", "name": "McDonald's", "image_url": "", "is_closed": false, "url": "https://www.yelp.com/biz/mcdonalds-melvindale?adjust_creative=HLFMMIEGVil6OfM8RfgS5Q&utm_campaign=yelp_api_v3&utm_medium=api_v3_business_search&utm_source=HLFMMIEGVil6OfM8RfgS5Q", "review_count": 2, "categories": [{"alias": "hotdogs", "title": "Fast Food"}, {"alias": "burgers", "title": "Burgers"}], "rating": 1.0, "coordinates": {"latitude": 42.2810668945312, "longitude": -83.1886901855469}, "transactions": [], "location": {"address1": "4001 Oakwood Blvd", "address2": "", "address3": "", "city": "Melvindale", "zip_code": "48122", "country": "US", "state": "MI", "display_address": ["4001 Oakwood Blvd", "Melvindale, MI 48122"]}, "phone": "+13133814300", "display_phone": "(313) 381-4300", "distance": 12087.17015892}, {"id": "mcdonalds-troy-6", "name": "McDonald's", "image_url": "https://s3-media2.fl.yelpcdn.com/bphoto/lsmv2IKf-0lnm4poo5Juzg/o.jpg", "is_closed": false, "url": "https://www.yelp.com/biz/mcdonalds-troy-6?adjust_creative=HLFMMIEGVil6OfM8RfgS5Q&utm_campaign=yelp_api_v3&utm_medium=api_v3_business_search&utm_source=HLFMMIEGVil6OfM8RfgS5Q", "review_count": 20, "categories": [{"alias": "burgers", "title": "Burgers"}, {"alias": "hotdogs", "title": "Fast Food"}], "rating": 1.5, "coordinates": {"latitude": 42.5635054, "longitude": -83.1290487}, "transactions": [], "price": "$", "location": {"address1": "3039 Rochester Rd", "address2": null, "address3": null, "city": "Troy", "zip_code": "48083", "country": "US", "state": "MI", "display_address": ["3039 Rochester Rd", "Troy, MI 48083"]}, "phone": "+12487400604", "display_phone": "(248) 740-0604", "distance": 22588.50955656}, {"id": "mcdonalds-dearborn", "name": "McDonald's", "image_url": "https://s3-media2.fl.yelpcdn.com/bphoto/1Zq5A5zpc4GtTzyf_DZCLg/o.jpg", "is_closed": false, "url": "https://www.yelp.com/biz/mcdonalds-dearborn?adjust_creative=HLFMMIEGVil6OfM8RfgS5Q&utm_campaign=yelp_api_v3&utm_medium=api_v3_business_search&utm_source=HLFMMIEGVil6OfM8RfgS5Q", "review_count": 18, "categories": [{"alias": "hotdogs", "title": "Fast Food"}, {"alias": "burgers", "title": "Burgers"}], "rating": 1.5, "coordinates": {"latitude": 42.2973799, "longitude": -83.28501}, "transactions": [], "price": "$", "location": {"address1": "25341 Michigan Ave", "address2": null, "address3": null, "city": "Dearborn", "zip_code": "48124", "country": "US", "state": "MI", "display_address": ["25341 Michigan Ave", "Dearborn, MI 48124"]}, "phone": "+13133599488", "display_phone": "(313) 359-9488", "distance": 17536.97154264}, {"id": "mcdonalds-southfield-2", "name": "McDonald's", "image_url": "https://s3-media2.fl.yelpcdn.com/bphoto/jFx7pPiPRG8gnn_-l9P_3g/o.jpg", "is_closed": false, "url": "https://www.yelp.com/biz/mcdonalds-southfield-2?adjust_creative=HLFMMIEGVil6OfM8RfgS5Q&utm_campaign=yelp_api_v3&utm_medium=api_v3_business_search&utm_source=HLFMMIEGVil6OfM8RfgS5Q", "review_count": 41, "categories": [{"alias": "hotdogs", "title": "Fast Food"}, {"alias": "burgers", "title": "Burgers"}], "rating": 1.0, "coordinates": {"latitude": 42.4992599, "longitude": -83.3035583}, "transactions": [], "price": "$", "location": {"address1": "28670 Northwestern Hwy", "address2": null, "address3": null, "city": "Southfield", "zip_code": "48034", "country": "US", "state": "MI", "display_address": ["28670 Northwestern Hwy", "Southfield, MI 48034"]}, "phone": "+12483526574", "display_phone": "(248) 352-6574", "distance": 23156.58887382}, {"id": "mcdonalds-eastpointe", "name": "McDonald's", "image_url": "https://s3-media4.fl.yelpcdn.com/bphoto/fj1HEosNtNI5IpQ0eHWirQ/o.jpg", "is_closed": false, "url": "https://www.yelp.com/biz/mcdonalds-eastpointe?adjust_creative=HLFMMIEGVil6OfM8RfgS5Q&utm_campaign=yelp_api_v3&utm_medium=api_v3_business_search&utm_source=HLFMMIEGVil6OfM8RfgS5Q", "review_count": 27, "categories": [{"alias": "hotdogs", "title": "Fast Food"}, {"alias": "burgers", "title": "Burgers"}], "rating": 1.0, "coordinates": {"latitude": 42.465591, "longitude": -82.935898}, "transactions": [], "price": "$", "location": {"address1": "17921 E 9 Mile Rd", "address2": "", "address3": "", "city": "Eastpointe", "zip_code": "48021", "country": "US", "state": "MI", "display_address": ["17921 E 9 Mile Rd", "Eastpointe, MI 48021"]}, "phone": "+15867565016", "display_phone": "(586) 756-5016", "distance": 17137.197002579996}, {"id": "mcdonalds-canton-28", "name": "McDonald's", "image_url": "https://s3-media2.fl.yelpcdn.com/bphoto/PUt1R_KV1iPpxl7vNrKbFQ/o.jpg", "is_closed": false, "url": "https://www.yelp.com/biz/mcdonalds-canton-28?adjust_creative=HLFMMIEGVil6OfM8RfgS5Q&utm_campaign=yelp_api_v3&utm_medium=api_v3_business_search&utm_source=HLFMMIEGVil6OfM8RfgS5Q", "review_count": 8, "categories": [{"alias": "hotdogs", "title": "Fast Food"}, {"alias": "burgers", "title": "Burgers"}], "rating": 2.0, "coordinates": {"latitude": 42.322531231818, "longitude": -83.482104450528}, "transactions": [], "price": "$", "location": {"address1": "44900 Ford Rd", "address2": "", "address3": "", "city": "Canton", "zip_code": "48187", "country": "US", "state": "MI", "display_address": ["44900 Ford Rd", "Canton, MI 48187"]}, "phone": "+17344593313", "display_phone": "(734) 459-3313", "distance": 32450.414720020002}, {"id": "mcdonalds-novi-2", "name": "McDonald's", "image_url": "https://s3-media2.fl.yelpcdn.com/bphoto/XOS6J-JkluTxxZo_jikg1w/o.jpg", "is_closed": false, "url": "https://www.yelp.com/biz/mcdonalds-novi-2?adjust_creative=HLFMMIEGVil6OfM8RfgS5Q&utm_campaign=yelp_api_v3&utm_medium=api_v3_business_search&utm_source=HLFMMIEGVil6OfM8RfgS5Q", "review_count": 15, "categories": [{"alias": "hotdogs", "title": "Fast Food"}, {"alias": "burgers", "title": "Burgers"}], "rating": 2.0, "coordinates": {"latitude": 42.4402313, "longitude": -83.4353485}, "transactions": [], "price": "$", "location": {"address1": "21050 Haggerty Rd", "address2": null, "address3": null, "city": "Novi", "zip_code": "48375", "country": "US", "state": "MI", "display_address": ["21050 Haggerty Rd", "Novi, MI 48375"]}, "phone": "+12483490060", "display_phone": "(248) 349-0060", "distance": 29575.253171039996}, {"id": "mcdonalds-novi", "name": "McDonald's", "image_url": "https://s3-media4.fl.yelpcdn.com/bphoto/TDlWIaKVqS4KjbsH8OSnoA/o.jpg", "is_closed": false, "url": "https://www.yelp.com/biz/mcdonalds-novi?adjust_creative=HLFMMIEGVil6OfM8RfgS5Q&utm_campaign=yelp_api_v3&utm_medium=api_v3_business_search&utm_source=HLFMMIEGVil6OfM8RfgS5Q", "review_count": 25, "categories": [{"alias": "hotdogs", "title": "Fast Food"}, {"alias": "burgers", "title": "Burgers"}], "rating": 2.0, "coordinates": {"latitude": 42.4951610462032, "longitude": -83.4709282206027}, "transactions": [], "price": "$", "location": {"address1": "42665 W 12 Mile Rd", "address2": "", "address3": "", "city": "Novi", "zip_code": "48377", "country": "US", "state": "MI", "display_address": ["42665 W 12 Mile Rd", "Novi, MI 48377"]}, "phone": "+12483480255", "display_phone": "(248) 348-0255", "distance": 34501.60706372}, {"id": "mcdonalds-warren-18", "name": "McDonald's", "image_url": "", "is_closed": false, "url": "https://www.yelp.com/biz/mcdonalds-warren-18?adjust_creative=HLFMMIEGVil6OfM8RfgS5Q&utm_campaign=yelp_api_v3&utm_medium=api_v3_business_search&utm_source=HLFMMIEGVil6OfM8RfgS5Q", "review_count": 14, "categories": [{"alias": "hotdogs", "title": "Fast Food"}, {"alias": "burgers", "title": "Burgers"}], "rating": 1.5, "coordinates": {"latitude": 42.4783058166504, "longitude": -83.0055236816406}, "transactions": [], "price": "$", "location": {"address1": "11631 E 10 Mile Rd", "address2": "", "address3": "", "city": "Warren", "zip_code": "48089", "country": "US", "state": "MI", "display_address": ["11631 E 10 Mile Rd", "Warren, MI 48089"]}, "phone": "+15867568030", "display_phone": "(586) 756-8030", "distance": 14670.09648532}, {"id": "mcdonalds-brownstown-charter-township", "name": "Mcdonalds", "image_url": "https://s3-media3.fl.yelpcdn.com/bphoto/_loK3m3GENziR-GFlNRLyQ/o.jpg", "is_closed": false, "url": "https://www.yelp.com/biz/mcdonalds-brownstown-charter-township?adjust_creative=HLFMMIEGVil6OfM8RfgS5Q&utm_campaign=yelp_api_v3&utm_medium=api_v3_business_search&utm_source=HLFMMIEGVil6OfM8RfgS5Q", "review_count": 10, "categories": [{"alias": "hotdogs", "title": "Fast Food"}, {"alias": "burgers", "title": "Burgers"}], "rating": 1.5, "coordinates": {"latitude": 42.094933963659, "longitude": -83.2362750500523}, "transactions": [], "price": "$", "location": {"address1": "20815 Gibraltar Rd", "address2": "", "address3": "", "city": "Brownstown Charter Township", "zip_code": "48183", "country": "US", "state": "MI", "display_address": ["20815 Gibraltar Rd", "Brownstown Charter Township, MI 48183"]}, "phone": "+17346756718", "display_phone": "(734) 675-6718", "distance": 32059.00713862}, {"id": "mcdonalds-troy-14", "name": "McDonald's", "image_url": "https://s3-media3.fl.yelpcdn.com/bphoto/635UR_GsjT84x_prLmgUvA/o.jpg", "is_closed": false, "url": "https://www.yelp.com/biz/mcdonalds-troy-14?adjust_creative=HLFMMIEGVil6OfM8RfgS5Q&utm_campaign=yelp_api_v3&utm_medium=api_v3_business_search&utm_source=HLFMMIEGVil6OfM8RfgS5Q", "review_count": 17, "categories": [{"alias": "hotdogs", "title": "Fast Food"}, {"alias": "burgers", "title": "Burgers"}], "rating": 2.0, "coordinates": {"latitude": 42.5895195007324, "longitude": -83.1298446655273}, "transactions": [], "price": "$", "location": {"address1": "4819 Rochester Rd", "address2": "", "address3": "", "city": "Troy", "zip_code": "48085", "country": "US", "state": "MI", "display_address": ["4819 Rochester Rd", "Troy, MI 48085"]}, "phone": "+12485242437", "display_phone": "(248) 524-2437", "distance": 25447.4071155}, {"id": "mcdonalds-southgate-3", "name": "McDonald's", "image_url": "https://s3-media4.fl.yelpcdn.com/bphoto/HIZjdukouZoLMQMIq0AGIg/o.jpg", "is_closed": false, "url": "https://www.yelp.com/biz/mcdonalds-southgate-3?adjust_creative=HLFMMIEGVil6OfM8RfgS5Q&utm_campaign=yelp_api_v3&utm_medium=api_v3_business_search&utm_source=HLFMMIEGVil6OfM8RfgS5Q", "review_count": 4, "categories": [{"alias": "hotdogs", "title": "Fast Food"}, {"alias": "burgers", "title": "Burgers"}], "rating": 1.0, "coordinates": {"latitude": 42.1877213, "longitude": -83.184761}, "transactions": [], "location": {"address1": "16515 Fort St", "address2": "", "address3": "", "city": "Southgate", "zip_code": "48195", "country": "US", "state": "MI", "display_address": ["16515 Fort St", "Southgate, MI 48195"]}, "phone": "+17342857040", "display_phone": "(734) 285-7040", "distance": 20901.54304166}, {"id": "mcdonalds-detroit-7", "name": "McDonalds", "image_url": "https://s3-media4.fl.yelpcdn.com/bphoto/uIzpoGMdcqL76jaOULjQlA/o.jpg", "is_closed": false, "url": "https://www.yelp.com/biz/mcdonalds-detroit-7?adjust_creative=HLFMMIEGVil6OfM8RfgS5Q&utm_campaign=yelp_api_v3&utm_medium=api_v3_business_search&utm_source=HLFMMIEGVil6OfM8RfgS5Q", "review_count": 12, "categories": [{"alias": "hotdogs", "title": "Fast Food"}], "rating": 2.0, "coordinates": {"latitude": 42.2264835613706, "longitude": -83.3484649658203}, "transactions": [], "price": "$", "location": {"address1": "1 Detroit Metro Airport", "address2": "", "address3": "", "city": "Detroit", "zip_code": "48242", "country": "US", "state": "MI", "display_address": ["1 Detroit Metro Airport", "Detroit, MI 48242"]}, "phone": "", "display_phone": "", "distance": 26019.57737504}, {"id": "mcdonalds-livonia-2", "name": "McDonald's", "image_url": "https://s3-media1.fl.yelpcdn.com/bphoto/vg4XAJAmM3Y7wnFcpdNfZQ/o.jpg", "is_closed": false, "url": "https://www.yelp.com/biz/mcdonalds-livonia-2?adjust_creative=HLFMMIEGVil6OfM8RfgS5Q&utm_campaign=yelp_api_v3&utm_medium=api_v3_business_search&utm_source=HLFMMIEGVil6OfM8RfgS5Q", "review_count": 16, "categories": [{"alias": "hotdogs", "title": "Fast Food"}, {"alias": "burgers", "title": "Burgers"}], "rating": 1.0, "coordinates": {"latitude": 42.361393, "longitude": -83.415932}, "transactions": [], "price": "$", "location": {"address1": "38015 Ann Arbor Rd", "address2": "", "address3": "", "city": "Livonia", "zip_code": "48150", "country": "US", "state": "MI", "display_address": ["38015 Ann Arbor Rd", "Livonia, MI 48150"]}, "phone": "+17344629470", "display_phone": "(734) 462-9470", "distance": 26764.062887059998}, {"id": "mcdonalds-southfield-4", "name": "McDonald's", "image_url": "https://s3-media3.fl.yelpcdn.com/bphoto/C3mvAGQu_31vxTJKzW29IQ/o.jpg", "is_closed": false, "url": "https://www.yelp.com/biz/mcdonalds-southfield-4?adjust_creative=HLFMMIEGVil6OfM8RfgS5Q&utm_campaign=yelp_api_v3&utm_medium=api_v3_business_search&utm_source=HLFMMIEGVil6OfM8RfgS5Q", "review_count": 15, "categories": [{"alias": "hotdogs", "title": "Fast Food"}, {"alias": "burgers", "title": "Burgers"}], "rating": 2.0, "coordinates": {"latitude": 42.511044, "longitude": -83.223824}, "transactions": [], "price": "$", "location": {"address1": "30161 Southfield Rd", "address2": "Ste 33522", "address3": "", "city": "Southfield", "zip_code": "48076", "country": "US", "state": "MI", "display_address": ["30161 Southfield Rd", "Ste 33522", "Southfield, MI 48076"]}, "phone": "+12485944773", "display_phone": "(248) 594-4773", "distance": 19798.414501299998}, {"id": "mcdonalds-romulus-4", "name": "McDonald's", "image_url": "https://s3-media3.fl.yelpcdn.com/bphoto/qx9IbJWQFt0dIqqMNEU_fA/o.jpg", "is_closed": false, "url": "https://www.yelp.com/biz/mcdonalds-romulus-4?adjust_creative=HLFMMIEGVil6OfM8RfgS5Q&utm_campaign=yelp_api_v3&utm_medium=api_v3_business_search&utm_source=HLFMMIEGVil6OfM8RfgS5Q", "review_count": 9, "categories": [{"alias": "burgers", "title": "Burgers"}, {"alias": "hotdogs", "title": "Fast Food"}], "rating": 2.0, "coordinates": {"latitude": 42.24628, "longitude": -83.34705}, "transactions": [], "price": "$", "location": {"address1": "8019 Merriman Rd", "address2": "", "address3": "", "city": "Romulus", "zip_code": "48174", "country": "US", "state": "MI", "display_address": ["8019 Merriman Rd", "Romulus, MI 48174"]}, "phone": "+17347284264", "display_phone": "(734) 728-4264", "distance": 24706.29478012}, {"id": "mcdonalds-commerce-township-4", "name": "McDonald's", "image_url": "https://s3-media3.fl.yelpcdn.com/bphoto/ID7uneWPT3VMpxBbe6Y0XA/o.jpg", "is_closed": false, "url": "https://www.yelp.com/biz/mcdonalds-commerce-township-4?adjust_creative=HLFMMIEGVil6OfM8RfgS5Q&utm_campaign=yelp_api_v3&utm_medium=api_v3_business_search&utm_source=HLFMMIEGVil6OfM8RfgS5Q", "review_count": 8, "categories": [{"alias": "hotdogs", "title": "Fast Food"}, {"alias": "burgers", "title": "Burgers"}], "rating": 4.0, "coordinates": {"latitude": 42.5783615, "longitude": -83.4465637}, "transactions": [], "location": {"address1": "8300 Richardson Rd", "address2": "", "address3": "", "city": "Commerce Township", "zip_code": "48382", "country": "US", "state": "MI", "display_address": ["8300 Richardson Rd", "Commerce Township, MI 48382"]}, "phone": "+12483634241", "display_phone": "(248) 363-4241", "distance": 37803.1391056}, {"id": "lafayette-coney-island-detroit", "name": "Lafayette Coney Island", "image_url": "https://s3-media2.fl.yelpcdn.com/bphoto/GGhTTqgbU3RGz2XqQmwHwA/o.jpg", "is_closed": false, "url": "https://www.yelp.com/biz/lafayette-coney-island-detroit?adjust_creative=HLFMMIEGVil6OfM8RfgS5Q&utm_campaign=yelp_api_v3&utm_medium=api_v3_business_search&utm_source=HLFMMIEGVil6OfM8RfgS5Q", "review_count": 724, "categories": [{"alias": "diners", "title": "Diners"}, {"alias": "hotdog", "title": "Hot Dogs"}, {"alias": "newamerican", "title": "American (New)"}], "rating": 4.0, "coordinates": {"latitude": 42.3314466332113, "longitude": -83.0488398850383}, "transactions": [], "price": "$", "location": {"address1": "118 W Lafayette Blvd", "address2": "", "address3": "", "city": "Detroit", "zip_code": "48226", "country": "US", "state": "MI", "display_address": ["118 W Lafayette Blvd", "Detroit, MI 48226"]}, "phone": "+13139648198", "display_phone": "(313) 964-8198", "distance": 4883.404631429999}, {"id": "mcdonalds-taylor-8", "name": "McDonald's", "image_url": "https://s3-media2.fl.yelpcdn.com/bphoto/tVy1d5WQNqNSi4Dlea8SWQ/o.jpg", "is_closed": false, "url": "https://www.yelp.com/biz/mcdonalds-taylor-8?adjust_creative=HLFMMIEGVil6OfM8RfgS5Q&utm_campaign=yelp_api_v3&utm_medium=api_v3_business_search&utm_source=HLFMMIEGVil6OfM8RfgS5Q", "review_count": 14, "categories": [{"alias": "hotdogs", "title": "Fast Food"}, {"alias": "burgers", "title": "Burgers"}], "rating": 1.5, "coordinates": {"latitude": 42.2567024230957, "longitude": -83.2458343505859}, "transactions": [], "price": "$", "location": {"address1": "21300 Ecorse Rd", "address2": "", "address3": "", "city": "Taylor", "zip_code": "48180", "country": "US", "state": "MI", "display_address": ["21300 Ecorse Rd", "Taylor, MI 48180"]}, "phone": "+13139283900", "display_phone": "(313) 928-3900", "distance": 17330.52701678}, {"id": "mcdonalds-harrison-township", "name": "McDonald's", "image_url": "https://s3-media3.fl.yelpcdn.com/bphoto/Ol5HqUhSfk8Qq5h2N_i1Kw/o.jpg", "is_closed": false, "url": "https://www.yelp.com/biz/mcdonalds-harrison-township?adjust_creative=HLFMMIEGVil6OfM8RfgS5Q&utm_campaign=yelp_api_v3&utm_medium=api_v3_business_search&utm_source=HLFMMIEGVil6OfM8RfgS5Q", "review_count": 13, "categories": [{"alias": "hotdogs", "title": "Fast Food"}, {"alias": "burgers", "title": "Burgers"}], "rating": 2.5, "coordinates": {"latitude": 42.5703182816505, "longitude": -82.8489598631859}, "transactions": [], "price": "$", "location": {"address1": "26300 Crocker Blvd", "address2": "", "address3": "", "city": "Harrison Township", "zip_code": "48045", "country": "US", "state": "MI", "display_address": ["26300 Crocker Blvd", "Harrison Township, MI 48045"]}, "phone": "+15864638240", "display_phone": "(586) 463-8240", "distance": 30354.820685719995}, {"id": "mcdonalds-woodhaven-2", "name": "McDonald's", "image_url": "https://s3-media2.fl.yelpcdn.com/bphoto/Sif07t7Yb3iLDItk57R_xA/o.jpg", "is_closed": false, "url": "https://www.yelp.com/biz/mcdonalds-woodhaven-2?adjust_creative=HLFMMIEGVil6OfM8RfgS5Q&utm_campaign=yelp_api_v3&utm_medium=api_v3_business_search&utm_source=HLFMMIEGVil6OfM8RfgS5Q", "review_count": 6, "categories": [{"alias": "burgers", "title": "Burgers"}, {"alias": "hotdogs", "title": "Fast Food"}], "rating": 2.5, "coordinates": {"latitude": 42.13887, "longitude": -83.248573}, "transactions": [], "price": "$", "location": {"address1": "22172 West Rd", "address2": "", "address3": "", "city": "Woodhaven", "zip_code": "48183", "country": "US", "state": "MI", "display_address": ["22172 West Rd", "Woodhaven, MI 48183"]}, "phone": "+17346752940", "display_phone": "(734) 675-2940", "distance": 28038.515326459998}, {"id": "mcdonalds-livonia-4", "name": "McDonald's", "image_url": "https://s3-media2.fl.yelpcdn.com/bphoto/Y943Aqcmqgtso4O0Pygc5Q/o.jpg", "is_closed": false, "url": "https://www.yelp.com/biz/mcdonalds-livonia-4?adjust_creative=HLFMMIEGVil6OfM8RfgS5Q&utm_campaign=yelp_api_v3&utm_medium=api_v3_business_search&utm_source=HLFMMIEGVil6OfM8RfgS5Q", "review_count": 14, "categories": [{"alias": "hotdogs", "title": "Fast Food"}, {"alias": "burgers", "title": "Burgers"}], "rating": 2.0, "coordinates": {"latitude": 42.399055480957, "longitude": -83.3350524902344}, "transactions": [], "price": "$", "location": {"address1": "15399 Middlebelt Rd", "address2": "", "address3": "", "city": "Livonia", "zip_code": "48154", "country": "US", "state": "MI", "display_address": ["15399 Middlebelt Rd", "Livonia, MI 48154"]}, "phone": "+17345228090", "display_phone": "(734) 522-8090", "distance": 20458.34207104}, {"id": "mcdonalds-auburn-hills-2", "name": "McDonald's", "image_url": "https://s3-media2.fl.yelpcdn.com/bphoto/c68Imhr3tMNdEV4AGq3f2w/o.jpg", "is_closed": false, "url": "https://www.yelp.com/biz/mcdonalds-auburn-hills-2?adjust_creative=HLFMMIEGVil6OfM8RfgS5Q&utm_campaign=yelp_api_v3&utm_medium=api_v3_business_search&utm_source=HLFMMIEGVil6OfM8RfgS5Q", "review_count": 13, "categories": [{"alias": "hotdogs", "title": "Fast Food"}, {"alias": "burgers", "title": "Burgers"}], "rating": 1.5, "coordinates": {"latitude": 42.6635513, "longitude": -83.2462692}, "transactions": [], "price": "$", "location": {"address1": "1481 N Opdyke Rd", "address2": "", "address3": "", "city": "Auburn Hills", "zip_code": "48326", "country": "US", "state": "MI", "display_address": ["1481 N Opdyke Rd", "Auburn Hills, MI 48326"]}, "phone": "+12483733227", "display_phone": "(248) 373-3227", "distance": 35815.67340722}, {"id": "mcdonalds-bloomfield-hills", "name": "McDonald's", "image_url": "https://s3-media2.fl.yelpcdn.com/bphoto/mZA1NmrMNlvuMFUFOGED6A/o.jpg", "is_closed": false, "url": "https://www.yelp.com/biz/mcdonalds-bloomfield-hills?adjust_creative=HLFMMIEGVil6OfM8RfgS5Q&utm_campaign=yelp_api_v3&utm_medium=api_v3_business_search&utm_source=HLFMMIEGVil6OfM8RfgS5Q", "review_count": 16, "categories": [{"alias": "burgers", "title": "Burgers"}, {"alias": "hotdogs", "title": "Fast Food"}], "rating": 3.0, "coordinates": {"latitude": 42.6059188842773, "longitude": -83.2949142456055}, "transactions": [], "price": "$", "location": {"address1": "2209 S Telegraph Rd", "address2": "", "address3": "", "city": "Bloomfield Hills", "zip_code": "48302", "country": "US", "state": "MI", "display_address": ["2209 S Telegraph Rd", "Bloomfield Hills, MI 48302"]}, "phone": "+12483388482", "display_phone": "(248) 338-8482", "distance": 31824.25271282}, {"id": "mcdonalds-garden-city-2", "name": "McDonald's", "image_url": "https://s3-media1.fl.yelpcdn.com/bphoto/xF9szkjc84NgBqCk957fFw/o.jpg", "is_closed": false, "url": "https://www.yelp.com/biz/mcdonalds-garden-city-2?adjust_creative=HLFMMIEGVil6OfM8RfgS5Q&utm_campaign=yelp_api_v3&utm_medium=api_v3_business_search&utm_source=HLFMMIEGVil6OfM8RfgS5Q", "review_count": 5, "categories": [{"alias": "hotdogs", "title": "Fast Food"}, {"alias": "burgers", "title": "Burgers"}], "rating": 1.0, "coordinates": {"latitude": 42.3248021, "longitude": -83.3310249}, "transactions": [], "price": "$", "location": {"address1": "2205 Middlebelt Rd", "address2": "", "address3": "", "city": "Garden City", "zip_code": "48135", "country": "US", "state": "MI", "display_address": ["2205 Middlebelt Rd", "Garden City, MI 48135"]}, "phone": "+17344258070", "display_phone": "(734) 425-8070", "distance": 20201.83741514}, {"id": "mcdonalds-sterling-heights-4", "name": "McDonalds", "image_url": "https://s3-media1.fl.yelpcdn.com/bphoto/4JXB9ap73tk1t4hCiVR-MA/o.jpg", "is_closed": false, "url": "https://www.yelp.com/biz/mcdonalds-sterling-heights-4?adjust_creative=HLFMMIEGVil6OfM8RfgS5Q&utm_campaign=yelp_api_v3&utm_medium=api_v3_business_search&utm_source=HLFMMIEGVil6OfM8RfgS5Q", "review_count": 15, "categories": [{"alias": "hotdogs", "title": "Fast Food"}, {"alias": "burgers", "title": "Burgers"}], "rating": 1.5, "coordinates": {"latitude": 42.5926055908203, "longitude": -83.0886535644531}, "transactions": [], "price": "$", "location": {"address1": "2000 18 Mile Rd", "address2": "", "address3": "", "city": "Sterling Heights", "zip_code": "48314", "country": "US", "state": "MI", "display_address": ["2000 18 Mile Rd", "Sterling Heights, MI 48314"]}, "phone": "+15869399140", "display_phone": "(586) 939-9140", "distance": 25596.245316059998}, {"id": "mcdonalds-dearborn-heights", "name": "McDonald's", "image_url": "https://s3-media3.fl.yelpcdn.com/bphoto/J6kbb2gwp6qmOnXzjV9Ntg/o.jpg", "is_closed": false, "url": "https://www.yelp.com/biz/mcdonalds-dearborn-heights?adjust_creative=HLFMMIEGVil6OfM8RfgS5Q&utm_campaign=yelp_api_v3&utm_medium=api_v3_business_search&utm_source=HLFMMIEGVil6OfM8RfgS5Q", "review_count": 8, "categories": [{"alias": "burgers", "title": "Burgers"}, {"alias": "hotdogs", "title": "Fast Food"}], "rating": 1.5, "coordinates": {"latitude": 42.33485, "longitude": -83.27237}, "transactions": [], "price": "$", "location": {"address1": "6412 N Telegraph Rd", "address2": "", "address3": "", "city": "Dearborn Heights", "zip_code": "48127", "country": "US", "state": "MI", "display_address": ["6412 N Telegraph Rd", "Dearborn Heights, MI 48127"]}, "phone": "+13132788228", "display_phone": "(313) 278-8228", "distance": 15223.395624019999}, {"id": "mcdonalds-macomb-3", "name": "McDonald's", "image_url": "https://s3-media3.fl.yelpcdn.com/bphoto/QRMZrC6aNn_YhQgT0kxjFg/o.jpg", "is_closed": false, "url": "https://www.yelp.com/biz/mcdonalds-macomb-3?adjust_creative=HLFMMIEGVil6OfM8RfgS5Q&utm_campaign=yelp_api_v3&utm_medium=api_v3_business_search&utm_source=HLFMMIEGVil6OfM8RfgS5Q", "review_count": 11, "categories": [{"alias": "hotdogs", "title": "Fast Food"}, {"alias": "burgers", "title": "Burgers"}], "rating": 3.0, "coordinates": {"latitude": 42.62914, "longitude": -82.94172}, "transactions": [], "price": "$", "location": {"address1": "18001 Hall Rd", "address2": null, "address3": null, "city": "Macomb", "zip_code": "48044", "country": "US", "state": "MI", "display_address": ["18001 Hall Rd", "Macomb, MI 48044"]}, "phone": "+15862630569", "display_phone": "(586) 263-0569", "distance": 32064.88605764}, {"id": "mcdonalds-trenton-10", "name": "McDonald's", "image_url": "https://s3-media1.fl.yelpcdn.com/bphoto/WegL9xXApeRKKk4_kqW-iA/o.jpg", "is_closed": false, "url": "https://www.yelp.com/biz/mcdonalds-trenton-10?adjust_creative=HLFMMIEGVil6OfM8RfgS5Q&utm_campaign=yelp_api_v3&utm_medium=api_v3_business_search&utm_source=HLFMMIEGVil6OfM8RfgS5Q", "review_count": 4, "categories": [{"alias": "hotdogs", "title": "Fast Food"}, {"alias": "burgers", "title": "Burgers"}], "rating": 2.0, "coordinates": {"latitude": 42.140426, "longitude": -83.210144}, "transactions": [], "price": "$", "location": {"address1": "3355 West Rd", "address2": "", "address3": "", "city": "Trenton", "zip_code": "48183", "country": "US", "state": "MI", "display_address": ["3355 West Rd", "Trenton, MI 48183"]}, "phone": "+17346752940", "display_phone": "(734) 675-2940", "distance": 26561.7704584}], "total": 888, "region": {"center": {"longitude": -83.0909729004, "latitude": 42.3624185557}}}}
{"McDonald": {"businesses": [{"id": "mcdonalds-columbus-89", "name": "McDonald's", "image_url": "https://s3-media2.fl.yelpcdn.com/bphoto/fed-rcLFEaBboxjcP2fhqg/o.jpg", "is_closed": false, "url": "https://www.yelp.com/biz/mcdonalds-columbus-89?adjust_creative=HLFMMIEGVil6OfM8RfgS5Q&utm_campaign=yelp_api_v3&utm_medium=api_v3_business_search&utm_source=HLFMMIEGVil6OfM8RfgS5Q", "review_count": 4, "categories": [{"alias": "hotdogs", "title": "Fast Food"}, {"alias": "burgers", "title": "Burgers"}], "rating": 4.0, "coordinates": {"latitude": 39.971489, "longitude": -83.0985031}, "transactions": [], "price": "$", "location": {"address1": "901 N Wilson Rd", "address2": "", "address3": "", "city": "Columbus", "zip_code": "43204", "country": "US", "state": "OH", "display_address": ["901 N Wilson Rd", "Columbus, OH 43204"]}, "phone": "+16142797699", "display_phone": "(614) 279-7699", "distance": 9585.70299063}, {"id": "mcdonalds-columbus-23", "name": "McDonald's", "image_url": "https://s3-media4.fl.yelpcdn.com/bphoto/9Lm03aBjfY26WvOdPhjp4g/o.jpg", "is_closed": false, "url": "https://www.yelp.com/biz/mcdonalds-columbus-23?adjust_creative=HLFMMIEGVil6OfM8RfgS5Q&utm_campaign=yelp_api_v3&utm_medium=api_v3_business_search&utm_source=HLFMMIEGVil6OfM8RfgS5Q", "review_count": 22, "categories": [{"alias": "hotdogs", "title": "Fast Food"}, {"alias": "burgers", "title": "Burgers"}], "rating": 3.0, "coordinates": {"latitude": 39.9886665344238, "longitude": -83.0305633544922}, "transactions": [], "price": "$", "location": {"address1": "910 W 5th Ave", "address2": "", "address3": "", "city": "Columbus", "zip_code": "43212", "country": "US", "state": "OH", "display_address": ["910 W 5th Ave", "Columbus, OH 43212"]}, "phone": "+16142917971", "display_phone": "(614) 291-7971", "distance": 3712.317847154}, {"id": "mcdonalds-dublin", "name": "McDonald's", "image_url": "https://s3-media4.fl.yelpcdn.com/bphoto/Sv9tzvlyCtkPnCmPEiXX2w/o.jpg", "is_closed": false, "url": "https://www.yelp.com/biz/mcdonalds-dublin?adjust_creative=HLFMMIEGVil6OfM8RfgS5Q&utm_campaign=yelp_api_v3&utm_medium=api_v3_business_search&utm_source=HLFMMIEGVil6OfM8RfgS5Q", "review_count": 18, "categories": [{"alias": "hotdogs", "title": "Fast Food"}, {"alias": "burgers", "title": "Burgers"}], "rating": 3.0, "coordinates": {"latitude": 40.0770067619159, "longitude": -83.1300995195175}, "transactions": [], "price": "$", "location": {"address1": "5170 Tuttle Crossing Blvd", "address2": "", "address3": "", "city": "Dublin", "zip_code": "43016", "country": "US", "state": "OH", "display_address": ["5170 Tuttle Crossing Blvd", "Dublin, OH 43016"]}, "phone": "+16147340539", "display_phone": "(614) 734-0539", "distance": 13319.52387326}, {"id": "mcdonalds-columbus-31", "name": "McDonald's", "image_url": "https://s3-media4.fl.yelpcdn.com/bphoto/ECRNc97qa3I--sDZillrxw/o.jpg", "is_closed": false, "url": "https://www.yelp.com/biz/mcdonalds-columbus-31?adjust_creative=HLFMMIEGVil6OfM8RfgS5Q&utm_campaign=yelp_api_v3&utm_medium=api_v3_business_search&utm_source=HLFMMIEGVil6OfM8RfgS5Q", "review_count": 10, "categories": [{"alias": "hotdogs", "title": "Fast Food"}, {"alias": "burgers", "title": "Burgers"}], "rating": 3.0, "coordinates": {"latitude": 40.019397, "longitude": -83.0247318}, "transactions": [], "price": "$", "location": {"address1": "2865 Olentangy River Rd", "address2": null, "address3": null, "city": "Columbus", "zip_code": "43202", "country": "US", "state": "OH", "display_address": ["2865 Olentangy River Rd", "Columbus, OH 43202"]}, "phone": "+16142673377", "display_phone": "(614) 267-3377", "distance": 2357.294283456}, {"id": "mcdonalds-columbus-34", "name": "McDonald's", "image_url": "https://s3-media4.fl.yelpcdn.com/bphoto/4m2KFGYfmqM1jTfOrApGdg/o.jpg", "is_closed": false, "url": "https://www.yelp.com/biz/mcdonalds-columbus-34?adjust_creative=HLFMMIEGVil6OfM8RfgS5Q&utm_campaign=yelp_api_v3&utm_medium=api_v3_business_search&utm_source=HLFMMIEGVil6OfM8RfgS5Q", "review_count": 20, "categories": [{"alias": "hotdogs", "title": "Fast Food"}, {"alias": "burgers", "title": "Burgers"}], "rating": 2.0, "coordinates": {"latitude": 40.0026435852051, "longitude": -83.0081100463867}, "transactions": [], "price": "$", "location": {"address1": "1972 N High St", "address2": null, "address3": null, "city": "Columbus", "zip_code": "43201", "country": "US", "state": "OH", "display_address": ["1972 N High St", "Columbus, OH 43201"]}, "phone": "+16142918123", "display_phone": "(614) 291-8123", "distance": 1269.518042026}, {"id": "mcdonalds-columbus-71", "name": "McDonald's", "image_url": "https://s3-media2.fl.yelpcdn.com/bphoto/Nd5iMH1-Dhi2y_-BKQzDUw/o.jpg", "is_closed": false, "url": "https://www.yelp.com/biz/mcdonalds-columbus-71?adjust_creative=HLFMMIEGVil6OfM8RfgS5Q&utm_campaign=yelp_api_v3&utm_medium=api_v3_business_search&utm_source=HLFMMIEGVil6OfM8RfgS5Q", "review_count": 3, "categories": [{"alias": "hotdogs", "title": "Fast Food"}, {"alias": "burgers", "title": "Burgers"}], "rating": 3.5, "coordinates": {"latitude": 40.1414833068848, "longitude": -82.9662322998047}, "transactions": [], "price": "$", "location": {"address1": "8555 Orion Pl", "address2": "", "address3": "", "city": "Columbus", "zip_code": "43240", "country": "US", "state": "OH", "display_address": ["8555 Orion Pl", "Columbus, OH 43240"]}, "phone": "+16148474489", "display_phone": "(614) 847-4489", "distance": 14696.5492069}], "total": 400, "region": {"center": {"longitude": -82.9989624023, "latitude": 40.0116566176}}}}